{"type":"FeatureCollection","version":"draft","features":[{"type":"Feature","geometry":{"type":"Point","coordinates":[2.062821,49.031624]},"properties":{"label":"8 Boulevard du Port 95000 Cergy","score":0.4922592822966506,"housenumber":"8","id":"95127_1448_00008","name":"8 Boulevard du Port","postcode":"95000","citycode":"95127","x":631468.28,"y":6881710.34,"city":"Cergy","context":"95, Val-d'Oise, Île-de-France","type":"housenumber","importance":0.67801,"street":"Boulevard du Port"}},{"type":"Feature","geometry":{"type":"Point","coordinates":[2.290084,49.897442]},"properties":{"label":"8 Boulevard du Port 80000 Amiens","score":0.4921556459330143,"housenumber":"8","id":"80021_6590_00008","name":"8 Boulevard du Port","postcode":"80000","citycode":"80021","x":648952.58,"y":6977867.14,"city":"Amiens","context":"80, Somme, Hauts-de-France","type":"housenumber","importance":0.67687,"street":"Boulevard du Port"}},{"type":"Feature","geometry":{"type":"Point","coordinates":[3.605884,43.425225]},"properties":{"label":"8 Boulevard du Port 34140 Mèze","score":0.48710200956937794,"housenumber":"8","id":"34157_0770_00008","name":"8 Boulevard du Port","postcode":"34140","citycode":"34157","x":749085.29,"y":6258645.39,"city":"Mèze","context":"34, Hérault, Occitanie","type":"housenumber","importance":0.62128,"street":"Boulevard du Port"}},{"type":"Feature","geometry":{"type":"Point","coordinates":[3.036731,42.79091]},"properties":{"label":"8 Boulevard du Port 66420 Le Barcarès","score":0.48123928229665064,"housenumber":"8","id":"66017_0249_00008","name":"8 Boulevard du Port","postcode":"66420","citycode":"66017","x":703008.57,"y":6187933.13,"city":"Le Barcarès","context":"66, Pyrénées-Orientales, Occitanie","type":"housenumber","importance":0.55679,"street":"Boulevard du Port"}},{"type":"Feature","geometry":{"type":"Point","coordinates":[-2.340983,47.258811]},"properties":{"label":"8 Boulevard du Port 44380 Pornichet","score":0.4772138277511961,"housenumber":"8","id":"44132_0141_00008","banId":"e39398ae-b8aa-420a-a79c-02580b0f3ac2","name":"8 Boulevard du Port","postcode":"44380","citycode":"44132","x":296409.78,"y":6697932.63,"city":"Pornichet","context":"44, Loire-Atlantique, Pays de la Loire","type":"housenumber","importance":0.51251,"street":"Boulevard du Port"}},{"type":"Feature","geometry":{"type":"Point","coordinates":[45.160161,-12.733779]},"properties":{"label":"Boulevard du Port 97600 Koungou","score":0.3998166985645933,"id":"97610_3111","name":"Boulevard du Port","postcode":"97600","citycode":"97610","x":517386.42,"y":8592299,"city":"Koungou","context":"976, Mayotte","type":"street","importance":0.60851,"street":"Boulevard du Port"}},{"type":"Feature","geometry":{"type":"Point","coordinates":[-1.556207,47.241855]},"properties":{"label":"8 Boulevard du Petit Port 44300 Nantes","score":0.39193818181818185,"housenumber":"8","id":"44109_6479_00008","name":"8 Boulevard du Petit Port","postcode":"44300","citycode":"44109","x":355531.08,"y":6692335.49,"city":"Nantes","context":"44, Loire-Atlantique, Pays de la Loire","type":"housenumber","importance":0.71132,"street":"Boulevard du Petit Port"}},{"type":"Feature","geometry":{"type":"Point","coordinates":[-0.685048,47.37344]},"properties":{"label":"Boulevard du Port 49170 La Possonnière","score":0.38383760765550234,"id":"49247_0112","name":"Boulevard du Port","postcode":"49170","citycode":"49247","x":422022.87,"y":6703498.9,"city":"La Possonnière","context":"49, Maine-et-Loire, Pays de la Loire","type":"street","importance":0.43274,"street":"Boulevard du Port"}},{"type":"Feature","geometry":{"type":"Point","coordinates":[6.36319,43.121752]},"properties":{"label":"boulevard du Port 83230 Bormes-les-Mimosas","score":0.383603971291866,"id":"83019_0756","name":"boulevard du Port","postcode":"83230","citycode":"83019","x":973823.39,"y":6230553.11,"city":"Bormes-les-Mimosas","context":"83, Var, Provence-Alpes-Côte d'Azur","type":"street","importance":0.43017,"street":"boulevard du Port"}},{"type":"Feature","geometry":{"type":"Point","coordinates":[-1.499354,47.434451]},"properties":{"label":"8 Boulevard du port-mulon 44390 Nort-sur-Erdre","score":0.38236363636363635,"housenumber":"8","id":"44110_0640_00008","name":"8 Boulevard du port-mulon","postcode":"44390","citycode":"44110","x":361043.13,"y":6713448.5,"city":"Nort-sur-Erdre","context":"44, Loire-Atlantique, Pays de la Loire","type":"housenumber","importance":0.606,"street":"Boulevard du port-mulon"}},{"type":"Feature","geometry":{"type":"Point","coordinates":[4.21824,43.825399]},"properties":{"label":"8 Boulevard du Portail Bas 30870 Clarensac","score":0.36251167832167835,"housenumber":"8","id":"30082_cwyk4n_00008","name":"8 Boulevard du Portail Bas","postcode":"30870","citycode":"30082","x":798005.83,"y":6303687.87,"city":"Clarensac","context":"30, Gard, Occitanie","type":"housenumber","importance":0.52609,"street":"Boulevard du Portail Bas"}},{"type":"Feature","geometry":{"type":"Point","coordinates":[-3.51076,48.829098]},"properties":{"label":"8 Boulevard du Coz-Pors 22730 Trégastel","score":0.35336090909090906,"housenumber":"8","id":"22353_0003_00008","name":"8 Boulevard du Coz-Pors","postcode":"22730","citycode":"22353","x":222570.43,"y":6878476.35,"city":"Trégastel","context":"22, Côtes-d'Armor, Bretagne","type":"housenumber","importance":0.51197,"street":"Boulevard du Coz-Pors"}},{"type":"Feature","geometry":{"type":"Point","coordinates":[5.891743,45.69767]},"properties":{"label":"8 Boulevard du port aux filles 73100 Aix-les-Bains","score":0.32984909090909087,"housenumber":"8","id":"73008_1700_00008","name":"8 Boulevard du port aux filles","postcode":"73100","citycode":"73008","x":924979.76,"y":6515019.97,"city":"Aix-les-Bains","context":"73, Savoie, Auvergne-Rhône-Alpes","type":"housenumber","importance":0.62834,"street":"Boulevard du port aux filles"}},{"type":"Feature","geometry":{"type":"Point","coordinates":[-1.092782,45.985045]},"properties":{"label":"8 Boulevard des 2 Ports 17450 Fouras","score":0.31718727272727276,"housenumber":"8","id":"17168_0270_00008","name":"8 Boulevard des 2 Ports","postcode":"17450","citycode":"17168","x":383303.3,"y":6551022.45,"city":"Fouras","context":"17, Charente-Maritime, Nouvelle-Aquitaine","type":"housenumber","importance":0.60906,"street":"Boulevard des 2 Ports"}},{"type":"Feature","geometry":{"type":"Point","coordinates":[55.295483,-20.939457]},"properties":{"label":"8 Boulevard de Verdun 97420 Le Port","score":0.30584636363636364,"housenumber":"8","id":"97407_0460_00008","banId":"add99b67-8e85-415b-b047-96a3b3d5cbaf","name":"8 Boulevard de Verdun","postcode":"97420","citycode":"97407","x":322760.64,"y":7683610.41,"city":"Le Port","context":"974, La Réunion","type":"housenumber","importance":0.66431,"street":"Boulevard de Verdun"}}],"attribution":"BAN","licence":"ETALAB-2.0","query":"8 bd du port","limit":15}